,city,latitud,longitud,temperature,wind_speed,cloudiness,humidity,date
0,mataura,-46.19,168.86,284.26,0.45,26,84,1562821161
1,butaritari,3.07,172.79,303.1,1.92,67,63,1562821162
2,busselton,-33.64,115.35,292.59,5.42,93,47,1562821162
3,wanganui,-39.93,175.05,285.93,5.81,17,73,1562821163
4,catuday,16.29,119.81,302.5,5.74,10,78,1562821163
5,puerto ayora,-0.74,-90.35,294.26,0.45,33,92,1562821164
6,port lincoln,-34.72,135.86,287.7,13.8,66,76,1562821164
7,ushuaia,-54.81,-68.31,275.15,1.5,75,99,1562821164
8,hermanus,-34.42,19.24,284.26,4.28,0,94,1562821165
9,vao,59.1,26.19,286.4,4.09,100,65,1562821165
10,sorland,67.67,12.69,283.15,3.1,90,100,1562821166
11,jamestown,-33.21,138.6,287.2,7.86,85,69,1562820924
12,vaini,15.34,74.49,297.15,3.1,75,94,1562821166
13,chokurdakh,70.62,147.9,299.2,3.68,37,37,1562821166
14,malmesbury,51.58,-2.1,290.37,0.5,0,82,1562821167
15,punta arenas,-53.16,-70.91,276.15,3.1,90,100,1562821167
16,hovd,63.83,10.7,284.26,2.1,75,93,1562821167
17,vanavara,60.35,102.28,294.0,2.0,100,67,1562821171
18,atuona,-9.8,-139.03,300.2,7.94,18,80,1562821171
19,meulaboh,4.14,96.13,302.5,2.63,76,65,1562821171
20,castro,-42.48,-73.76,279.15,3.1,90,100,1562821172
21,bubaque,11.28,-15.83,299.4,8.2,100,84,1562821172
22,cape town,-33.93,18.42,284.26,0.5,0,100,1562821172
23,eldorado,-24.52,-48.11,283.3,1.05,58,91,1562821173
24,saskylakh,71.97,114.09,292.4,2.82,81,41,1562821173
25,oil city,41.43,-79.71,296.15,1.5,1,78,1562821175
26,vallenar,-28.58,-70.76,280.4,0.62,72,77,1562821176
27,hithadhoo,-0.6,73.08,302.4,4.85,100,74,1562821177
28,severodvinsk,64.56,39.82,279.15,3.0,90,93,1562821177
29,ponta do sol,-20.63,-46.0,283.8,1.06,0,70,1562821177
30,carnarvon,-30.97,22.13,283.0,4.35,0,31,1562821178
31,flinders,-34.58,150.85,291.48,11.3,0,38,1562821178
32,mount isa,-20.73,139.49,299.15,5.7,34,16,1562821178
33,batagay-alyta,67.8,130.41,295.3,5.56,83,37,1562821179
34,kodiak,39.95,-94.76,295.93,2.6,1,43,1562821179
35,bogen,48.91,12.69,287.04,1.12,84,72,1562821179
36,aklavik,68.22,-135.01,280.15,5.1,90,93,1562821180
37,east london,-33.02,27.91,283.15,1.5,0,100,1562821180
38,ribeira brava,32.65,-17.07,294.15,5.1,40,68,1562821180
39,rikitea,-23.12,-134.97,296.2,7.92,13,81,1562821181
40,zitlala,17.69,-99.19,289.5,1.9,100,94,1562821181
41,cidreira,-30.17,-50.22,287.9,2.28,100,74,1562821181
42,pochutla,15.74,-96.47,299.15,2.6,40,78,1562821181
43,albany,42.65,-73.75,296.48,2.6,1,100,1562820998
44,luwuk,-0.95,122.79,292.1,2.19,100,90,1562821182
45,avera,33.19,-82.53,299.15,2.1,40,94,1562821183
46,kapaa,22.08,-159.32,301.15,5.7,20,69,1562821183
47,lompoc,34.64,-120.46,290.93,4.6,90,93,1562821185
48,searcy,35.25,-91.74,298.15,1.5,1,100,1562821186
49,bethel,60.79,-161.76,295.15,3.6,40,73,1562820952
50,kahului,20.89,-156.47,301.15,10.3,40,69,1562821187
51,kruisfontein,-34.0,24.73,287.0,4.27,0,35,1562821187
52,nikolskoye,59.7,30.79,284.26,5.0,40,62,1562821189
53,sancti spiritus,21.93,-79.44,296.9,0.88,91,85,1562821189
54,broome,52.47,1.45,290.37,1.5,100,93,1562821189
55,victoria,5.28,115.24,305.15,1.5,75,62,1562821190
56,qaanaaq,77.48,-69.36,277.4,1.39,91,68,1562821190
57,saint-philippe,45.36,-73.48,297.59,1.5,1,78,1562821190
58,molochnoye,44.91,34.04,291.8,2.55,100,59,1562821191
59,dunedin,-45.87,170.5,284.82,1.79,0,69,1562821066
60,shingu,33.72,135.99,296.15,3.6,75,88,1562821192
61,madras,44.63,-121.13,295.15,3.6,1,63,1562821192
62,upernavik,72.79,-56.15,278.7,1.95,69,79,1562821192
63,egvekinot,66.32,-179.17,298.8,2.26,0,23,1562821193
64,bluff,-23.58,149.07,296.4,3.69,3,44,1562820994
65,ribeira grande,38.52,-28.7,294.1,2.33,0,87,1562821194
66,arraial do cabo,-22.97,-42.02,290.1,5.28,33,80,1562821194
67,vardo,39.62,-77.74,298.15,1.03,75,78,1562821194
68,sisimiut,66.94,-53.67,277.8,4.88,90,91,1562821194
69,pangai,-19.8,-174.35,297.15,5.7,75,88,1562821195
70,hobyo,5.35,48.53,303.4,9.54,72,53,1562821195
71,nicoya,10.15,-85.45,298.15,1.5,0,83,1562821196
72,lebu,8.96,38.73,286.15,3.1,40,82,1562821196
73,new norfolk,-42.78,147.06,286.15,8.7,40,43,1562821196
74,khatanga,71.98,102.47,282.8,2.21,100,78,1562821197
75,darnah,32.77,22.64,301.9,8.29,0,57,1562820966
76,belyy yar,53.6,91.39,295.15,4.0,68,56,1562821197
77,hobart,-42.88,147.33,286.15,8.7,40,43,1562821128
78,barrow,-38.31,-60.23,281.5,1.94,100,86,1562821198
79,pedernales,0.07,-80.05,297.2,5.28,100,86,1562821198
80,dowa,31.0,94.93,279.8,0.72,100,63,1562821198
81,ahipara,-35.17,173.16,288.2,3.8,0,79,1562821199
82,saint-louis,16.03,-16.5,296.1,6.28,21,83,1562821199
83,kaitangata,-46.28,169.85,284.26,0.89,32,67,1562821200
84,norman wells,65.28,-126.83,293.15,1.5,75,52,1562821200
85,tianpeng,28.88,112.34,303.3,2.6,100,61,1562821200
86,adeje,5.68,5.76,296.8,1.77,80,91,1562821201
87,panzhihua,26.59,101.72,300.5,0.76,100,61,1562821201
88,nishihara,35.74,139.53,298.71,1.5,75,60,1562821202
89,grindavik,63.84,-22.43,285.37,1.0,90,100,1562821202
90,cabo san lucas,22.89,-109.91,303.15,3.1,5,42,1562821114
91,pangkalanbuun,-2.68,111.62,305.8,2.09,71,53,1562821203
92,taksimo,56.36,114.84,296.3,2.1,87,42,1562821203
93,roebourne,-20.77,117.15,301.3,6.55,100,17,1562821204
94,bilma,18.69,12.92,304.0,4.07,23,9,1562821204
95,hilo,19.71,-155.08,300.15,3.1,90,69,1562821205
96,tautira,-17.73,-149.15,300.15,5.1,20,54,1562821206
97,prado,3.75,-74.93,296.6,1.8,14,56,1562821206
98,leningradskiy,69.38,178.42,279.9,1.8,7,70,1562821207
99,wangqing,43.31,129.76,293.4,4.26,98,65,1562821207
100,san carlos,11.12,-84.78,294.82,6.71,99,6,1562821207
101,daru,-9.07,143.21,299.1,4.48,24,67,1562821208
102,kieta,-6.22,155.63,302.0,3.09,100,67,1562821208
103,bredasdorp,-34.53,20.04,281.15,0.5,0,93,1562821209
104,iralaya,15.0,-83.23,297.4,0.61,15,96,1562821209
105,anadyr,64.73,177.51,293.15,6.0,0,42,1562821209
106,vanimo,-2.67,141.3,301.1,3.24,67,72,1562821210
107,pevek,69.7,170.27,286.0,5.91,0,58,1562821210
108,katsuura,33.93,134.5,303.15,7.7,75,88,1562821211
109,labuhan,-2.54,115.51,303.1,0.46,82,70,1562821211
110,tasiilaq,65.61,-37.64,279.15,2.6,82,75,1562821211
111,port alfred,-33.59,26.89,287.04,2.68,0,80,1562821212
112,nelson bay,-32.72,152.14,293.71,11.3,0,34,1562821212
113,dangriga,16.97,-88.23,298.71,0.89,78,100,1562821212
114,bismarck,46.81,-100.78,293.15,2.6,1,77,1562821213
115,kavieng,-2.57,150.8,301.6,5.91,50,74,1562821020
116,wattegama,7.35,80.68,304.7,2.53,95,51,1562821213
117,fortuna,40.6,-124.16,291.15,3.1,90,87,1562821215
118,taoudenni,22.68,-3.98,305.5,2.76,15,29,1562821215
119,maltahohe,-24.83,16.98,278.7,0.55,0,57,1562821215
120,bajil,38.23,-2.07,284.82,0.45,0,79,1562821216
121,yumen,40.29,97.04,305.4,9.92,99,12,1562821216
122,luba,17.32,120.7,303.1,3.9,26,71,1562821217
123,aljezur,37.31,-8.8,294.82,1.51,0,63,1562821217
124,coihaique,-45.58,-72.07,276.15,2.6,95,93,1562821217
125,borovoy,63.23,52.89,285.5,2.96,96,89,1562821218
126,sale,-38.11,147.06,288.15,6.2,74,55,1562821219
127,ixtapa,20.71,-105.21,302.15,2.6,40,74,1562821219
128,chapais,49.78,-74.86,292.15,4.1,1,59,1562821219
129,san cristobal,14.68,-86.92,292.0,2.2,62,93,1562821220
130,husavik,50.56,-96.99,290.37,1.26,35,79,1562821220
131,tromso,69.65,18.96,285.15,3.1,75,76,1562821220
132,micheweni,-4.97,39.83,299.0,9.02,54,77,1562821221
133,tigil,57.8,158.67,290.5,4.65,17,60,1562821221
134,chernushka,56.5,56.08,290.8,6.36,0,80,1562821222
135,yellowknife,62.45,-114.38,285.15,3.1,75,66,1562821222
136,vestmannaeyjar,63.44,-20.27,284.6,5.09,96,78,1562821223
137,dikson,73.51,80.55,272.8,4.91,100,97,1562821223
138,huaicheng,23.91,112.19,304.1,1.57,97,65,1562821223
139,samagaltay,50.6,95.0,292.0,6.7,91,63,1562821223
140,lodja,-3.52,23.6,296.1,0.86,83,78,1562821224
141,luzhou,28.89,105.45,295.6,1.12,100,96,1562821225
142,rimouski,48.45,-68.52,284.15,3.1,5,81,1562821225
143,hami,42.84,93.51,308.7,3.8,69,13,1562821225
144,kropotkin,45.43,40.58,294.3,2.76,98,68,1562821226
145,saint-pierre,48.95,4.24,289.15,1.0,0,72,1562821226
146,airai,-8.93,125.41,301.9,1.42,91,48,1562821226
147,longyearbyen,78.22,15.63,280.15,1.0,75,87,1562821227
148,ormara,25.21,64.64,304.4,4.45,98,57,1562821227
149,port-cartier,50.03,-66.88,285.37,2.1,20,66,1562821228
150,boende,-0.28,20.88,295.0,1.66,81,94,1562821228
151,pitimbu,-7.47,-34.81,296.15,2.6,40,100,1562821228
152,rochefort,50.16,5.22,291.15,2.1,100,72,1562821228
153,yaan,7.38,8.57,295.5,2.49,100,93,1562821229
154,jawhar,19.91,73.23,300.7,5.71,100,82,1562821229
155,santa rosalia,38.07,13.27,300.93,2.6,20,83,1562821229
156,dingle,11.0,122.67,304.3,2.05,16,60,1562821230
157,pavilosta,56.89,21.19,288.15,0.5,84,93,1562821230
158,karpathos,35.51,27.21,300.15,1.5,0,57,1562821230
159,mar del plata,-46.43,-67.52,278.1,2.71,41,84,1562821056
160,pangnirtung,66.15,-65.72,285.9,0.68,66,64,1562821231
161,auki,12.18,6.51,295.8,6.69,40,86,1562821037
162,saint paul,44.95,-93.1,295.15,5.1,40,78,1562821231
163,ostersund,63.18,14.64,283.15,3.6,72,71,1562821094
164,natal,-5.81,-35.21,296.15,3.1,40,88,1562821232
165,celano,42.09,13.54,292.04,3.1,51,88,1562821232
166,vila franca do campo,37.72,-25.43,292.15,3.6,20,93,1562821233
167,nushki,29.55,66.02,310.4,5.53,0,22,1562821233
168,rio grande,-32.03,-52.1,284.15,1.4,0,100,1562821209
169,tuktoyaktuk,69.44,-133.03,277.15,6.7,90,100,1562821234
170,narimanov,46.69,47.85,299.15,2.0,0,54,1562821234
171,kalmunai,7.42,81.82,308.6,1.87,85,38,1562821234
172,palmer,-34.85,139.16,288.71,5.1,75,82,1562821235
173,samarai,-10.62,150.67,296.3,4.4,98,79,1562821235
174,am timan,11.04,20.28,294.8,6.1,100,92,1562821083
175,quatre cocos,-20.21,57.76,296.48,2.6,40,88,1562821236
176,coquimbo,-29.95,-71.34,282.15,0.5,20,100,1562821236
177,paamiut,61.99,-49.67,278.7,2.3,100,90,1562821237
178,shitanjing,39.23,106.34,303.2,4.17,3,20,1562821237
179,port keats,-14.25,129.55,302.2,5.17,84,32,1562821237
180,champerico,16.38,-93.6,296.15,1.61,75,83,1562821238
181,craig,40.52,-107.55,293.15,2.41,1,51,1562821238
182,nouadhibou,20.93,-17.03,293.15,8.7,1,82,1562821238
183,iquitos,-3.75,-73.25,296.15,0.72,0,94,1562821040
184,faanui,-16.48,-151.75,298.6,2.91,12,70,1562821239
185,whitefish,48.41,-114.33,295.15,1.5,75,49,1562821128
186,evensk,61.92,159.24,299.0,4.84,0,37,1562821240
187,zasheyek,67.41,32.55,279.7,5.54,38,66,1562821240
188,avarua,-21.21,-159.78,297.15,3.1,81,78,1562821241
189,saint george,39.45,22.34,294.26,4.1,75,93,1562821241
190,inirida,3.87,-67.92,294.7,1.06,38,98,1562821241
191,severo-kurilsk,50.68,156.12,279.2,9.59,100,97,1562821066
192,aksarka,66.56,67.8,290.8,6.09,100,90,1562821242
193,hambantota,6.12,81.12,304.15,6.2,75,70,1562821043
194,broken hill,-31.97,141.45,291.15,9.3,43,42,1562821204
195,caconda,-13.73,15.06,281.6,1.17,0,27,1562821243
196,aksay,51.17,53.01,297.1,2.72,0,38,1562821243
197,hasaki,35.73,140.83,296.15,2.1,75,69,1562821243
198,ulaanbaatar,47.92,106.92,301.15,2.0,40,24,1562821244
199,svarstad,59.4,9.97,289.82,0.68,0,67,1562821244
200,georgetown,6.8,-58.16,296.15,2.1,40,100,1562820967
201,lorengau,-2.02,147.27,300.5,4.84,100,75,1562821245
202,marzuq,14.4,46.47,304.4,2.04,36,26,1562821212
203,koronowo,53.31,17.94,284.82,2.6,75,93,1562821245
204,starosubkhangulovo,53.1,57.43,293.2,3.93,13,51,1562821245
205,leshukonskoye,64.9,45.76,279.1,4.1,100,94,1562821246
206,erenhot,43.65,111.97,301.7,2.71,24,22,1562821246
207,salamiyah,35.01,37.05,304.4,5.92,0,26,1562821247
208,cockburn town,21.46,-71.14,300.5,8.42,10,86,1562821247
209,olavarria,-36.89,-60.32,281.48,1.27,100,86,1562821247
210,ruteng,-8.61,120.46,300.7,2.3,1,53,1562821248
211,la ronge,55.1,-105.3,286.15,3.6,90,100,1562821248
212,padang,-0.92,100.36,301.7,2.94,0,75,1562821145
213,lakatoro,-16.11,167.42,300.0,5.33,51,78,1562821249
214,kibala,9.11,18.35,296.15,5.1,20,88,1562821249
215,pachino,36.72,15.09,293.15,1.5,0,72,1562821205
216,port elizabeth,39.31,-74.98,297.15,2.1,1,68,1562821250
217,nambucca heads,-30.64,152.99,297.59,5.1,0,43,1562821250
218,wiarton,44.74,-81.13,296.48,5.7,20,78,1562821250
219,mombaca,-5.74,-39.63,293.4,3.66,84,88,1562821251
220,sioux lookout,50.1,-91.92,288.15,1.5,75,100,1562821251
221,sao filipe,14.9,-24.5,295.4,6.47,47,87,1562821251
222,nanortalik,60.14,-45.24,276.5,0.18,13,93,1562821252
223,tiksi,71.64,128.87,286.2,2.83,100,54,1562820958
224,sitka,37.17,-99.65,296.48,4.22,35,78,1562821253
225,great falls,47.5,-111.29,295.15,4.1,75,60,1562821253
226,bathsheba,13.22,-59.52,300.15,7.7,40,74,1562821192
227,jacareacanga,-6.22,-57.76,294.5,0.74,7,86,1562821254
228,bestobe,52.5,73.1,300.7,6.03,85,29,1562821254
229,buraydah,26.33,43.97,300.15,2.1,0,42,1562821255
230,baruun-urt,46.68,113.28,300.6,3.85,11,28,1562821204
231,cherskiy,68.75,161.3,301.4,2.26,58,29,1562821255
232,brae,60.4,-1.35,285.15,4.6,100,93,1562821256
233,comodoro rivadavia,-45.87,-67.48,279.15,1.76,20,93,1562821256
234,lata,30.78,78.62,283.4,3.28,95,96,1562821256
235,kouroussa,10.65,-9.88,293.8,2.94,99,97,1562821257
236,kilindoni,-7.91,39.67,298.1,10.49,61,75,1562821257
237,dekar,-21.53,21.93,285.1,3.3,0,38,1562821258
238,orel-izumrud,43.46,39.92,295.15,3.0,90,73,1562821258
239,junagarh,19.86,82.94,305.3,5.2,100,59,1562821258
240,moranbah,-22.0,148.04,296.7,2.38,44,48,1562821259
241,chikodi,16.43,74.6,295.15,3.1,75,94,1562821259
242,clyde river,70.47,-68.59,283.15,2.1,1,71,1562821259
243,namibe,-15.19,12.15,292.2,4.24,15,81,1562821260
244,saldanha,41.42,-6.55,293.2,1.46,0,53,1562821260
245,hanzhong,33.08,107.03,296.6,1.63,100,68,1562821260
246,port blair,11.67,92.75,304.15,5.7,40,70,1562821225
247,tumut,-35.3,148.22,278.8,4.1,100,96,1562821261
248,campos altos,-19.7,-46.17,282.2,0.42,0,76,1562821261
249,cassilandia,-19.11,-51.73,288.0,2.64,0,51,1562821261
250,christchurch,-43.53,172.64,285.15,1.5,52,66,1562821140
251,lasa,34.92,32.53,301.15,2.1,0,45,1562821262
252,kavaratti,10.57,72.64,303.15,5.1,40,79,1562821262
253,riyadh,24.63,46.72,303.15,1.5,0,15,1562821263
254,phalaborwa,-23.95,31.14,288.15,2.6,0,51,1562821263
255,yatou,3.63,9.81,297.15,1.5,75,100,1562821263
256,mahebourg,-20.41,57.7,296.48,2.6,40,88,1562821122
257,cortez,37.35,-108.58,292.15,1.5,1,29,1562821264
258,mapastepec,15.44,-92.9,296.9,1.5,100,86,1562821264
259,verkhoyansk,67.55,133.39,301.9,3.8,1,26,1562821265
260,gat,14.69,-16.54,296.15,3.1,0,83,1562821265
261,lagoa,37.14,-8.45,294.82,2.6,0,64,1562821265
262,bara,10.41,10.6,295.8,4.51,100,88,1562821265
263,narsaq,60.91,-46.05,280.15,2.6,50,81,1562821266
264,tutoia,-2.76,-42.27,294.7,1.3,0,97,1562821266
265,namatanai,-3.66,152.44,299.7,9.76,100,79,1562821267
266,innisfail,-17.52,146.03,297.04,2.24,82,65,1562821267
267,mehamn,71.03,27.85,282.15,1.5,0,76,1562821267
268,nemuro,43.32,145.57,289.15,4.6,75,77,1562821268
269,torbay,47.66,-52.73,281.48,2.6,90,100,1562821269
270,lamar,38.09,-102.62,297.15,4.1,1,60,1562821269
271,ko samui,9.54,99.94,305.15,1.5,20,70,1562821107
272,sarangani,5.4,125.46,301.4,5.07,99,73,1562821269
273,sao pedro do sul,-29.62,-54.18,288.5,1.89,56,94,1562821270
274,corredor,-11.83,-41.77,289.1,2.79,59,88,1562821270
275,escarcega,18.61,-90.75,295.9,1.96,100,88,1562821271
276,susanville,40.42,-120.65,296.15,3.6,1,38,1562821135
277,salinopolis,-0.61,-47.36,300.2,6.58,69,76,1562821271
278,shubarkuduk,49.15,56.49,300.7,1.9,0,42,1562821271
279,hornepayne,49.22,-84.78,288.3,3.92,69,89,1562821272
280,san carlos de bariloche,-41.13,-71.31,274.15,2.14,40,94,1562821272
281,nuuk,64.17,-51.74,279.15,4.1,97,93,1562821273
282,ulverstone,-41.16,146.17,283.71,4.47,97,80,1562821273
283,fort nelson,58.81,-122.69,294.15,1.5,40,43,1562821274
284,ewa beach,21.32,-158.01,302.15,5.7,20,54,1562821274
285,southbridge,42.08,-72.03,295.93,3.6,1,77,1562821274
286,orange cove,36.62,-119.31,304.15,3.1,0,44,1562821275
287,bidar,17.91,77.52,301.7,9.32,100,64,1562821275
288,ayan,38.23,44.7,291.6,3.49,0,49,1562821275
289,novyy urengoy,66.08,76.63,285.8,9.6,93,76,1562821276
290,creel,27.75,-107.63,287.2,2.56,100,90,1562821276
291,khuzhir,53.19,107.35,298.6,1.24,34,41,1562821277
292,lokosovo,61.13,74.84,296.5,6.64,79,61,1562821277
293,mount gambier,-37.83,140.78,287.15,12.9,90,71,1562821277
294,komsomolskiy,67.55,63.78,291.3,6.82,83,75,1562821277
295,puerto madero,-34.61,-58.36,285.15,1.5,61,100,1562821278
296,dolores,-33.53,-58.22,285.37,0.89,84,93,1562821278
297,garowe,8.41,48.48,301.6,11.96,10,50,1562821278
298,codrington,-28.95,153.24,297.15,6.7,0,33,1562821279
299,iqaluit,63.75,-68.52,282.15,1.5,75,81,1562821279
300,isangel,-19.55,169.27,298.15,6.2,75,73,1562821278
301,tanete,-3.94,119.78,302.9,6.07,12,61,1562821279
302,martapura,-3.41,114.85,303.3,3.31,38,64,1562821280
303,piney green,35.09,-78.48,298.71,2.65,1,100,1562821280
304,santa cruz de tenerife,28.47,-16.25,294.82,6.2,90,88,1562821280
305,cayenne,4.94,-52.33,296.15,1.38,35,94,1562821281
306,strezhevoy,60.73,77.6,293.15,4.0,20,77,1562821281
307,muli,28.08,109.56,300.5,3.46,90,71,1562821281
308,jasper,33.83,-87.28,300.15,0.79,1,94,1562821281
309,thompson,55.74,-97.86,286.15,1.75,75,66,1562821282
310,kamenka,48.03,28.7,285.37,1.34,2,88,1562821282
311,ayna,38.55,-2.07,293.15,4.1,0,68,1562821283
312,yueyang,29.36,113.12,303.7,0.36,100,55,1562821283
313,bonavista,48.65,-53.11,281.48,0.45,46,84,1562821283
314,yabrud,33.97,36.66,297.15,5.7,0,60,1562821284
315,chumikan,54.72,135.31,286.9,3.05,80,81,1562821284
316,obligado,-27.06,-55.63,290.15,2.6,0,88,1562821285
317,ostrovnoy,68.05,39.51,277.6,10.08,100,85,1562821285
318,lumeje,-11.56,20.78,286.2,2.4,0,35,1562821285
319,sangar,63.92,127.47,301.4,5.52,96,39,1562821285
320,umm lajj,25.02,37.27,302.0,1.93,0,73,1562821286
321,itarema,-2.92,-39.92,295.8,2.85,12,85,1562821286
322,hofn,64.25,-15.21,277.7,0.89,100,81,1562821286
323,souillac,45.6,-0.6,293.71,1.24,0,77,1562821287
324,ancud,-41.87,-73.83,279.15,3.1,90,100,1562821288
325,bosansko grahovo,44.18,16.37,292.59,2.68,0,37,1562821288
326,caravelas,-17.73,-39.27,294.2,3.52,99,82,1562821289
327,goedereede,51.82,3.98,291.48,3.1,100,87,1562821289
328,luderitz,-26.65,15.16,290.15,4.1,0,65,1562821289
329,tura,64.27,100.22,288.5,4.81,100,82,1562821290
330,guerrero negro,27.97,-114.04,292.6,8.55,0,80,1562821290
331,alice springs,-23.7,133.88,294.15,4.1,9,19,1562821291
332,chuy,-33.69,-53.46,285.1,1.7,53,91,1562821291
333,kaeo,-35.1,173.78,285.8,1.34,0,88,1562821291
334,minab,27.15,57.07,307.15,2.1,21,59,1562821292
335,sesheke,-17.47,24.29,277.15,2.07,0,38,1562821292
336,sarh,9.14,18.39,296.15,5.1,20,88,1562821292
337,beira,43.2,-8.36,290.37,0.5,90,100,1562821292
338,soyo,-6.13,12.37,296.2,5.27,81,87,1562821293
339,xining,36.62,101.77,283.7,0.99,100,77,1562821293
340,kota kinabalu,5.98,116.07,306.15,2.6,75,66,1562821294
341,esperance,-33.86,121.89,288.15,6.7,40,77,1562821294
342,portland,43.66,-70.25,291.15,0.79,1,77,1562821221
343,pacifica,37.61,-122.49,291.15,3.1,1,93,1562821295
344,saint-denis,48.94,2.36,292.15,1.0,100,72,1562821295
345,pemba,-12.97,40.52,292.15,4.1,40,88,1562821295
346,calvinia,-31.47,19.78,286.7,4.93,0,24,1562821296
347,byron bay,-28.65,153.62,297.15,4.6,0,43,1562821296
348,simbahan,6.3,120.58,301.6,0.34,100,64,1562821296
349,chuzhou,32.25,118.33,304.8,0.41,1,40,1562821297
350,san policarpo,12.18,125.51,302.6,2.47,36,69,1562821297
351,gazojak,41.19,61.4,313.1,5.05,21,7,1562821297
352,zhuhai,40.71,112.04,299.15,2.0,20,44,1562821298
353,butwal,27.7,83.45,294.9,1.4,100,98,1562821298
354,kourou,5.16,-52.64,296.15,0.94,71,94,1562821298
355,honningsvag,70.98,25.97,282.15,1.5,0,76,1562821299
356,berlevag,70.86,29.09,282.15,1.5,0,76,1562821299
357,pimentel,-3.7,-45.5,293.9,0.16,2,98,1562821300
358,poum,41.28,20.71,285.15,4.1,0,66,1562821300
359,brits,-25.63,27.78,284.82,1.5,0,56,1562821300
360,virginia beach,36.85,-75.98,299.26,4.53,1,94,1562821095
361,wanning,48.64,13.53,286.48,3.1,40,76,1562821301
362,nueva concepcion,14.2,-91.3,300.4,1.53,83,75,1562821301
363,marystown,47.17,-55.16,280.8,3.01,67,90,1562821301
364,ilulissat,69.22,-51.1,278.15,1.5,34,93,1562821302
365,hokitika,-42.72,170.96,283.7,0.59,79,77,1562821302
366,saint anthony,43.97,-111.68,299.15,4.1,1,31,1562821303
367,santa maria,-16.02,-48.01,285.15,1.98,0,71,1562821303
368,shama,33.61,104.29,281.0,1.46,100,98,1562821303
369,yeppoon,-23.13,150.74,298.15,2.6,40,41,1562821304
370,dostpur,26.27,82.47,299.6,6.61,100,90,1562821304
371,kathu,-27.7,23.05,276.48,1.85,0,59,1562821304
372,oussouye,12.49,-16.54,299.1,3.86,27,84,1562821304
373,eureka,40.8,-124.16,291.15,3.1,90,87,1562821058
374,kysyl-syr,63.9,122.77,302.3,2.05,66,34,1562821305
375,sokoni,-12.89,28.78,286.4,2.92,28,48,1562821305
376,erzin,36.95,36.2,300.37,1.25,20,78,1562821306
377,casablanca,33.6,-7.62,292.15,2.6,75,93,1562821306
378,munster,41.56,-87.51,300.37,2.71,40,51,1562821306
379,pandan,11.72,122.09,302.4,3.48,0,72,1562821307
380,port-gentil,-0.72,8.78,296.5,4.88,82,85,1562821308
381,wajima,37.4,136.9,296.15,2.1,75,88,1562821308
382,awjilah,29.14,21.3,302.5,2.7,0,32,1562821308
383,bambanglipuro,-7.95,110.28,297.4,10.29,8,82,1562821309
384,mayo,63.59,-135.9,296.15,2.1,90,38,1562821309
385,margosatubig,7.58,123.17,301.9,2.18,47,71,1562821309
386,khasan,42.43,130.64,289.7,3.23,100,85,1562821310
387,salalah,17.01,54.1,300.15,2.6,75,88,1562821310
388,raudeberg,61.99,5.14,286.15,1.0,75,93,1562821310
389,provideniya,64.42,-173.23,291.15,1.0,0,59,1562821310
390,jiazi,19.61,110.49,307.15,3.0,20,63,1562821311
391,mamallapuram,12.63,80.17,305.15,2.6,75,55,1562821311
392,timiryazevskiy,47.05,39.61,291.15,1.64,20,77,1562821311
393,hualmay,-11.1,-77.61,289.8,6.25,1,89,1562821144
394,prainha,-1.8,-53.48,294.8,0.31,8,98,1562821312
395,izhmorskiy,56.19,86.64,293.9,3.04,0,49,1562821312
396,monte gordo,37.18,-7.45,294.82,2.6,0,64,1562821313
397,geraldton,49.72,-86.95,285.15,5.1,90,100,1562821071
398,juneau,58.3,-134.42,295.15,2.1,40,49,1562821313
399,the valley,18.22,-63.06,300.37,5.1,20,78,1562821314
400,inhambane,-23.87,35.38,291.5,1.55,0,64,1562821133
401,douglas,58.28,-134.39,295.15,2.1,40,49,1562821314
402,touros,-5.2,-35.46,296.15,2.1,40,94,1562821072
403,san patricio,-26.98,-56.83,291.1,3.69,80,82,1562821096
404,zhanaozen,43.35,52.85,303.2,5.56,0,39,1562821315
405,lundazi,-12.29,33.17,288.4,4.11,21,73,1562821316
406,vermillion,42.78,-96.93,294.26,2.1,1,88,1562821316
407,porbandar,21.64,69.61,305.15,6.7,40,70,1562821316
408,san pedro,-33.68,-59.66,282.59,0.5,100,88,1562821317
409,merauke,-8.49,140.4,298.5,8.86,78,76,1562821318
410,pauini,-7.71,-67.0,295.2,0.67,43,79,1562821318
411,ponta delgada,37.73,-25.67,292.15,3.6,20,93,1562821233
412,ibotirama,-12.18,-43.22,291.0,0.44,45,70,1562821319
413,poya,-21.35,165.16,294.8,4.84,55,65,1562821319
414,brasilia,-10.9,-37.55,296.15,7.7,75,94,1562821320
415,camacha,33.08,-16.33,294.15,6.7,75,68,1562821320
416,kita,35.76,139.74,298.71,1.5,75,60,1562821320
417,mitsamiouli,-11.38,43.28,298.15,7.7,20,65,1562821321
418,karaton,-6.34,106.1,305.15,6.2,20,49,1562821321
419,sept-iles,50.2,-66.38,285.37,2.1,20,66,1562821227
420,kodinsk,58.6,99.18,298.8,3.98,97,40,1562821322
421,porto novo,-23.68,-45.44,283.15,0.5,20,87,1562821139
422,bogorodskoye,52.37,140.44,295.4,1.93,100,64,1562821322
423,coahuayana,18.62,-100.35,293.8,0.8,100,97,1562821323
424,la brea,10.24,-61.62,298.71,3.62,20,88,1562821323
425,west wendover,40.74,-114.07,302.15,1.5,1,17,1562821323
426,saint-georges,46.12,-70.67,289.82,3.5,63,26,1562821324
427,havelian,34.05,73.15,302.15,3.1,90,66,1562821325
428,faya,18.39,42.45,295.15,1.64,5,49,1562821325
429,moquegua,-17.19,-70.93,283.4,2.47,0,43,1562821325
430,inuvik,68.36,-133.71,280.15,5.1,90,93,1562821258
431,launceston,-41.43,147.14,284.15,8.2,75,57,1562821326
432,sao joao da barra,-21.64,-41.05,286.9,1.06,0,91,1562821326
433,tilichiki,60.47,166.1,289.1,3.87,48,72,1562821326
434,kalyazin,57.24,37.84,283.5,4.34,100,89,1562821326
435,mvangue,2.97,11.5,292.2,0.1,100,98,1562821327
436,jinchang,38.52,102.19,296.7,4.91,94,23,1562821327
437,ust-nera,64.57,143.24,293.6,3.15,100,53,1562821327
438,kununurra,-15.77,128.74,304.15,4.6,5,18,1562821328
439,fraga,41.52,0.35,293.15,2.6,0,77,1562821328
440,norrtalje,59.76,18.7,287.59,3.6,0,71,1562821328
441,chengde,40.97,117.93,300.2,1.87,67,41,1562821328
442,acajutla,13.59,-89.83,301.7,3.08,43,76,1562821329
443,vila velha,-3.71,-38.6,298.15,3.1,0,78,1562821329
444,troitskoye,52.98,84.68,295.8,3.89,0,51,1562821330
445,lebanon,40.34,-76.42,298.15,1.19,1,83,1562821195
446,jinzhou,41.11,121.12,298.1,4.5,97,69,1562821331
447,pinawa,50.15,-95.88,288.15,1.28,25,70,1562821331
448,kijang,35.24,129.21,300.15,4.1,75,69,1562821313
449,zlobin,45.29,14.65,294.26,1.34,0,55,1562821332
450,dwarka,28.58,77.04,308.15,5.1,40,47,1562821332
451,maragogi,-9.01,-35.22,294.5,1.13,1,94,1562821225
452,bud,62.91,6.91,285.15,1.5,90,93,1562821333
453,catio,11.28,-15.25,299.3,7.1,100,86,1562821333
454,alofi,-19.06,-169.92,299.15,3.6,0,88,1562821333
455,goundam,16.42,-3.66,302.7,3.25,2,48,1562821334
456,bahia blanca,-38.72,-62.27,280.7,0.91,100,83,1562821335
457,salta,-24.79,-65.41,283.15,1.5,0,100,1562821335
458,la rioja,-29.41,-66.86,279.5,0.78,34,78,1562821335
459,port hawkesbury,45.62,-61.36,287.04,3.6,20,82,1562821335
460,bowen,-20.01,148.25,297.04,4.1,75,73,1562821336
461,bambous virieux,-20.34,57.76,296.48,2.6,40,88,1562821336
462,aller,51.06,-2.86,289.82,2.6,90,93,1562821336
463,thunder bay,48.41,-89.26,291.15,6.7,20,72,1562821307
464,barcelos,-0.97,-62.93,294.6,0.62,16,97,1562821337
465,marsabit,2.34,37.99,300.9,8.57,20,48,1562821337
466,preobrazheniye,42.9,133.91,292.8,2.7,99,62,1562821338
467,chaoyang,41.58,120.44,300.1,3.04,100,38,1562821338
468,liuzhou,24.32,109.41,296.7,1.51,100,94,1562821338
469,makokou,0.56,12.85,292.9,1.55,100,98,1562821338
470,taltal,-25.41,-70.49,282.9,2.9,53,91,1562821339
471,tingi,-11.3,35.03,291.2,1.93,68,61,1562821339
472,mahibadhoo,3.78,72.97,302.5,2.13,100,57,1562821339
473,vidisha,23.52,77.8,300.15,7.2,75,83,1562821340
474,bonfim,3.36,-59.84,296.5,3.02,3,86,1562821340
475,abu samrah,35.3,37.18,304.2,4.86,0,27,1562821340
476,puerto escondido,15.86,-97.07,299.15,2.6,40,78,1562821341
477,aleppo,36.2,37.17,301.4,3.77,0,51,1562821341
478,zharkent,44.17,80.0,291.4,2.88,0,57,1562821342
479,tuatapere,-46.13,167.69,284.26,0.45,3,84,1562821115
480,artyom,43.36,132.19,291.15,4.0,40,77,1562821342
481,capreol,46.71,-80.92,293.15,4.6,40,64,1562821118
482,puri,-7.54,112.45,303.5,2.75,0,46,1562821343
483,sabang,13.8,121.11,303.0,1.28,44,75,1562821343
484,zyryanka,65.73,150.89,302.4,2.12,5,33,1562821343
485,vostok,46.45,135.83,299.2,2.13,99,60,1562821344
486,san quintin,17.54,120.52,303.1,3.9,26,71,1562821344
487,qena,26.16,32.72,302.15,2.15,0,35,1562821345
488,miranda,-20.24,-56.38,289.7,1.69,0,56,1562821345
489,ghorawal,24.75,82.78,299.6,2.08,100,87,1562821345
490,deputatskiy,69.3,139.9,296.9,5.1,100,44,1562821346
491,bela,26.23,66.31,304.9,4.69,41,41,1562821346
492,antalaha,-14.9,50.28,296.8,0.69,30,65,1562821346
493,whitecourt,54.14,-115.68,288.15,3.1,40,82,1562821346
494,yanam,16.73,82.22,307.15,5.7,75,56,1562821347
495,ciro marina,39.37,17.13,296.3,11.61,1,61,1562821347
496,puerto baquerizo moreno,-0.9,-89.6,294.6,3.74,95,83,1562821348
497,ugoofaaru,5.67,73.0,302.3,1.75,100,64,1562821085
498,rovaniemi,66.5,25.72,282.15,3.6,0,66,1562821348
499,praia,-20.25,-43.81,285.15,0.38,0,76,1562821348
500,tremedal,-14.98,-41.41,285.8,1.81,7,96,1562821349
501,antofagasta,-23.65,-70.4,287.15,4.6,90,71,1562821349
502,guadalupe y calvo,26.09,-106.96,286.8,2.51,100,94,1562821349
503,petropavlovsk-kamchatskiy,53.05,158.65,292.15,5.0,40,72,1562821349
504,gawler,-34.6,138.75,289.26,5.1,75,82,1562821350
505,nizhniy lomov,53.53,43.67,289.8,6.13,1,72,1562821350
506,buchanan,5.88,-10.05,297.15,4.1,75,94,1562821350
507,kushima,31.5,131.29,302.15,7.7,75,70,1562821351
508,krishnagiri,12.52,78.22,304.3,7.79,85,41,1562821087
509,orlik,53.95,17.74,284.82,2.6,0,87,1562821352
510,biskamzha,53.45,89.53,292.4,1.91,100,59,1562821352
511,solnechnyy,50.72,136.64,301.8,2.2,97,51,1562821352
512,bellavista,21.56,-104.88,296.15,0.77,40,73,1562821353
513,johannesburg,-26.21,28.05,280.93,1.38,0,48,1562821336
514,iskateley,67.68,53.15,280.2,8.8,100,95,1562821353
515,chenghai,23.46,116.77,302.15,2.0,40,83,1562821353
516,jian,25.65,87.89,300.9,1.0,100,84,1562821354
517,mangochi,-14.48,35.26,289.6,2.1,25,77,1562821327
518,benjamin aceval,-24.97,-57.57,288.15,3.21,0,87,1562821354
519,mozarlandia,-14.74,-50.57,290.6,2.21,0,35,1562821355
520,alenquer,-1.95,-54.74,297.15,1.0,0,100,1562821355
521,cao bang,22.67,106.25,298.0,0.8,100,91,1562821355
522,aswan,24.09,32.9,302.15,1.0,0,20,1562821356
523,saint-joseph,43.56,6.97,298.15,1.5,0,77,1562821356
524,eyl,7.98,49.82,303.1,13.39,18,47,1562821356
525,san rafael,-34.61,-68.33,279.8,1.16,79,69,1562821157
526,charlottetown,46.23,-63.13,286.48,2.1,5,87,1562821357
527,agaro,7.86,36.59,290.3,0.47,100,92,1562821358
528,gonbad-e qabus,37.25,55.17,300.15,1.73,75,69,1562821358
529,north platte,41.12,-100.77,292.59,2.6,1,77,1562821359
530,khromtau,50.26,58.44,298.9,3.15,35,37,1562821359
531,aripuana,-9.17,-60.63,294.1,0.78,0,90,1562821102
532,kamina,-8.74,25.0,293.3,3.73,0,34,1562821360
533,bemidji,47.48,-94.89,290.15,1.5,1,93,1562821360
534,constitucion,23.99,-104.67,294.26,4.02,76,61,1562821360
535,college,64.86,-147.8,300.93,1.5,90,61,1562821361
536,skjervoy,70.03,20.97,281.3,0.97,80,82,1562821361
537,amapa,15.09,-87.97,299.15,2.6,40,83,1562821361
538,harwich,41.69,-70.08,295.37,2.6,90,100,1562821362
539,zverinogolovskoye,54.46,64.85,294.5,4.81,100,60,1562821363
540,samoded,63.61,40.52,280.1,3.82,96,80,1562821363
541,medvezhyegorsk,62.92,34.47,279.8,4.11,99,83,1562821363
542,khandyga,62.65,135.58,302.2,0.83,98,44,1562821335
543,olinda,-37.84,145.39,286.48,6.7,75,62,1562821364
544,baykit,61.68,96.39,290.4,6.46,51,57,1562821364
545,samalkha,29.24,77.01,313.4,5.95,5,33,1562821365
546,bihariganj,25.73,86.98,302.9,2.55,100,71,1562821365
547,viedma,-40.81,-62.99,281.2,3.27,65,74,1562821365
548,unity,52.44,-109.15,291.48,0.45,85,88,1562821365
549,hay river,60.82,-115.79,292.15,3.1,40,42,1562821366
550,lucapa,-8.42,20.74,291.7,3.0,24,31,1562821366
551,cobija,-11.02,-68.77,294.4,0.63,19,75,1562821366
552,zhezkazgan,47.8,67.71,302.15,5.0,0,23,1562821366
553,mercedes,-33.25,-58.03,285.37,0.89,84,93,1562821367
554,emerald,-23.53,148.16,297.04,2.6,0,40,1562821367
555,ambon,47.55,-2.56,292.59,2.6,0,82,1562821368
556,trairi,-3.28,-39.27,294.1,2.22,5,94,1562821368
557,phan thiet,10.93,108.1,307.6,5.38,4,44,1562821369
558,jinji,22.16,112.49,303.15,4.93,99,77,1562821369
559,kikwit,-5.04,18.82,295.3,2.02,37,72,1562821369
560,kulhudhuffushi,6.62,73.07,302.0,1.47,100,63,1562821370
561,ballina,54.11,-9.15,287.04,1.79,71,90,1562821370
562,necochea,-38.55,-58.74,277.59,0.89,83,96,1562821228
563,wukari,7.87,9.78,295.1,1.43,100,95,1562821371
564,uvat,59.14,68.9,295.4,6.58,56,59,1562821371
565,concepcion del oro,24.63,-101.42,292.8,3.61,72,56,1562821371
566,bonthe,7.53,-12.5,297.1,3.65,99,91,1562821372
567,giresun,40.91,38.39,296.15,1.5,75,73,1562821372
568,seoul,37.57,126.98,299.15,1.0,90,61,1562821200
569,keti bandar,24.14,67.45,302.1,7.9,100,81,1562821373
570,puerto leguizamo,-0.19,-74.78,294.2,0.19,37,95,1562821211
571,turukhansk,65.8,87.96,290.8,6.95,7,44,1562821373
572,xuddur,4.12,43.89,298.6,8.91,69,65,1562821374
573,gualaquiza,-3.4,-78.58,281.4,1.54,92,95,1562821374
574,izumo,35.37,132.75,302.15,6.2,75,66,1562821374
575,biltine,14.53,20.93,302.9,7.29,98,55,1562821375
576,hollins,37.35,-79.95,297.04,0.92,1,94,1562821375
577,adelaide,-34.93,138.6,288.71,5.1,75,82,1562821081
578,birao,10.3,22.78,296.1,5.44,100,88,1562821376
579,tooele,40.53,-112.3,302.15,4.1,1,39,1562821376
580,meadow lake,54.13,-108.44,287.0,2.89,100,99,1562821376
581,hoi an,15.88,108.33,310.15,3.1,20,42,1562821376
582,la palma,5.36,-74.39,291.7,1.45,25,96,1562821377
583,ayagoz,47.96,80.43,296.2,9.62,0,30,1562821377
584,jalu,29.03,21.55,301.7,2.76,0,40,1562821377
585,obidos,39.36,-9.16,296.15,4.1,0,56,1562821378
586,gizo,31.8,34.94,299.15,3.6,20,78,1562821378
587,mangan,27.5,88.54,288.6,0.4,100,97,1562821378
588,kirakira,-10.46,161.92,300.5,2.61,100,82,1562821378
589,alterosa,-21.25,-46.14,281.9,1.04,41,85,1562821379
590,upata,8.02,-62.41,298.15,1.34,1,85,1562821379
591,arroyo,-11.08,-66.08,294.7,0.3,9,73,1562821379
592,palauig,15.44,119.9,302.6,5.35,1,77,1562821380
593,boshnyakovo,49.65,142.17,283.0,6.55,100,95,1562821380
594,kargasok,59.06,80.87,296.0,3.16,81,47,1562821380
595,jaumave,23.41,-99.38,291.1,1.3,0,88,1562821380
596,atar,20.52,-13.05,301.1,3.79,22,22,1562821381
597,sokolo,14.74,-6.12,299.6,3.08,29,70,1562821381
598,high level,58.52,-117.13,291.15,1.0,75,52,1562821381
599,bhatgaon,21.15,81.7,303.15,8.2,40,70,1562821382
600,nyagan,62.14,65.43,294.8,4.29,94,69,1562821382
601,rochester,44.02,-92.46,294.26,2.1,1,94,1562821383
602,hamilton,43.26,-79.87,298.15,3.6,90,88,1562821383
603,shimoda,34.7,138.93,297.15,3.6,90,64,1562821384
604,lewistown,40.39,-90.15,298.15,2.6,40,78,1562821384
605,damoh,23.84,79.44,302.9,7.77,100,68,1562821384
606,aykhal,65.95,111.51,300.15,4.0,75,30,1562821385
607,belaya gora,68.54,146.19,301.8,3.97,36,31,1562821385
608,manta,45.1,24.1,288.8,1.81,0,62,1562821385
609,todos santos,23.45,-110.23,303.15,1.0,5,58,1562821386
610,nabire,-3.36,135.5,299.0,2.52,84,69,1562821386
611,yasnyy,64.04,44.09,279.3,3.93,100,91,1562821386
612,saint-augustin,45.63,-73.98,297.04,2.1,75,83,1562821387
613,pahrump,36.21,-115.98,307.15,6.2,1,7,1562821179
614,plettenberg bay,-34.05,23.37,287.3,2.91,0,38,1562821388
615,bathurst,-33.42,149.58,284.26,2.68,0,60,1562821388
616,kaniama,-7.57,24.18,294.1,1.66,0,43,1562821388
617,leh,34.16,77.58,282.6,1.14,55,51,1562821388
618,santo domingo,18.48,-69.94,300.37,0.45,15,84,1562821193
619,almaznyy,48.03,40.04,291.15,2.61,20,77,1562821389
620,laguna,16.17,-88.94,298.15,0.84,40,94,1562821390
621,mildura,-34.18,142.16,290.15,7.7,90,55,1562821390
622,naze,5.43,7.07,295.2,0.45,90,98,1562821390
623,fez,34.03,-5.02,292.15,3.1,0,77,1562821391
624,davila,18.47,120.58,304.15,5.7,20,70,1562821391
625,yashalta,46.34,42.27,290.9,1.43,100,88,1562821392
626,thanh hoa,10.21,106.33,304.15,2.1,40,66,1562821392
627,northam,-31.65,116.67,290.15,2.6,75,67,1562821392
628,rivers,50.03,-100.23,291.15,2.1,75,82,1562821392
629,le pradet,46.44,1.83,288.15,0.5,0,87,1562821393
630,sambava,-14.27,50.17,297.7,1.54,75,63,1562821393
631,buala,-8.15,159.59,301.1,2.25,100,78,1562821393
632,penticton,49.49,-119.59,292.15,1.5,75,82,1562821394
633,constantine,36.36,6.61,290.15,0.96,0,82,1562821394
634,port hedland,-20.31,118.58,302.15,8.2,100,13,1562821395
635,maningrida,-12.05,134.23,301.2,5.28,0,44,1562821395
636,nador,35.17,-2.93,296.15,4.24,75,83,1562821395
637,pasni,25.26,63.48,306.2,3.26,64,51,1562821395
638,sohag,26.55,31.7,302.15,1.0,0,42,1562821396
639,te anau,-45.41,167.72,281.5,0.63,0,81,1562821396
640,kastamonu,41.38,33.78,290.9,1.79,52,78,1562821396
641,bayan,36.1,102.26,286.0,3.31,100,70,1562821397
642,marsa matruh,31.35,27.25,297.15,4.1,0,94,1562821249
643,angoche,-16.23,39.91,295.9,3.35,4,69,1562821397
644,mujiayingzi,42.12,118.78,292.2,2.23,79,61,1562821398
645,baijiantan,45.63,85.18,300.1,2.32,0,18,1562821398
646,oranjestad,12.52,-70.03,300.15,7.7,40,83,1562821209
647,piacabucu,-10.41,-36.43,296.7,5.78,57,87,1562821399
648,nouakchott,18.08,-15.98,296.15,3.6,91,88,1562821399
649,zakopane,49.3,19.95,284.26,3.6,40,81,1562821161
650,charters towers,-20.07,146.27,296.8,4.53,51,53,1562821400
651,grand gaube,-20.01,57.66,296.48,2.6,40,88,1562821400
652,gao,16.28,-0.04,303.4,3.69,0,41,1562821401
653,chapayevka,53.06,158.83,292.15,5.0,40,72,1562821401
654,impfondo,1.62,18.06,294.7,1.63,100,95,1562821402
655,tonekabon,36.82,50.88,301.15,1.0,20,65,1562821402
656,taurianova,38.36,16.01,299.82,2.6,40,83,1562821402
657,mulege,26.88,-111.98,304.4,1.15,0,40,1562821403
658,yerbogachen,61.28,108.01,301.6,3.2,96,33,1562821403
659,paramonga,-10.68,-77.82,289.0,5.54,44,90,1562821403
660,pathein,16.78,94.73,303.1,5.4,84,73,1562821403
661,hirara,24.8,125.28,304.15,10.3,75,79,1562821404
662,waipawa,-39.94,176.59,284.82,4.02,59,77,1562821404
663,candido de abreu,-24.57,-51.33,283.5,1.09,71,97,1562821404
664,monrovia,6.33,-10.8,297.15,4.1,75,94,1562821405
665,cedar city,37.68,-113.06,298.15,3.6,1,22,1562821218
666,sur,22.57,59.53,307.3,4.01,52,47,1562821405
667,stepnyak,52.83,70.79,298.7,5.93,5,38,1562821405
668,mahajanga,-15.72,46.32,292.15,1.0,20,93,1562821219
669,recife,-28.48,-48.99,285.1,0.82,54,89,1562821214
670,walvis bay,-22.95,14.51,290.15,2.6,90,93,1562821406
671,coreau,-3.53,-40.66,293.5,1.05,17,87,1562821406
672,glubczyce,50.2,17.83,288.15,2.1,0,82,1562821407
673,sfantu gheorghe,44.65,26.83,292.04,2.6,0,87,1562821407
674,tyukhtet,56.54,89.31,295.9,2.64,2,34,1562821407
675,dhidhdhoo,6.88,73.1,301.9,0.87,100,64,1562821408
676,lavrentiya,65.58,-170.99,294.7,2.59,5,32,1562821408
677,maracaju,-21.61,-55.17,288.2,2.44,0,58,1562821408
678,nhulunbuy,-12.18,136.78,300.15,6.7,40,57,1562821409
679,banda aceh,5.56,95.32,302.3,4.88,99,74,1562821409
680,praia da vitoria,38.73,-27.07,292.15,2.99,20,88,1562821409
681,manzhouli,49.6,117.43,301.9,3.06,33,28,1562821410
682,anton lizardo,19.05,-95.98,300.15,2.47,75,100,1562821410
683,cairns,-16.92,145.77,299.15,5.7,40,61,1562821304
684,tessalit,20.2,1.01,303.6,2.89,15,28,1562821410
685,coruripe,-10.12,-36.18,293.2,0.79,14,96,1562821411
686,vir,43.52,17.21,285.15,1.5,20,76,1562821411
687,dzilam gonzalez,21.28,-88.93,300.4,4.58,99,86,1562821411
688,goderich,43.74,-81.71,296.48,6.36,80,89,1562821412
689,kidal,18.44,1.41,304.6,2.87,80,30,1562821231
690,vydrino,51.46,104.64,288.7,1.12,10,72,1562821412
691,bosaso,11.28,49.18,308.15,14.4,0,39,1562821412
692,qaqortoq,60.72,-46.03,280.15,2.6,50,81,1562821413
693,ustye,58.76,27.79,285.4,3.8,100,64,1562821413
694,troitsko-pechorsk,62.71,56.19,287.6,4.48,75,86,1562821413
695,itambacuri,-18.04,-41.68,285.1,0.8,0,94,1562821414
696,glendive,47.11,-104.71,294.15,2.6,1,100,1562821414
697,ordzhonikidzevskiy,43.84,41.9,291.1,1.59,87,76,1562821414
698,khanpur,28.65,70.66,313.7,8.79,0,30,1562821415
699,udimskiy,61.14,45.92,281.2,2.65,94,87,1562821415
700,arlit,18.74,7.39,306.0,4.87,1,27,1562821415
701,sao bartolomeu de messines,37.26,-8.29,294.82,2.6,0,64,1562821416
702,marienburg,52.12,9.98,288.15,0.5,75,82,1562821416
703,nadym,65.53,72.51,292.2,7.03,100,82,1562821417
704,kenora,49.76,-94.48,292.15,2.6,20,55,1562821345
705,matara,-3.48,29.48,292.15,3.1,75,88,1562821417
706,podgorenskiy,50.4,39.64,291.2,2.95,4,66,1562821418
707,salumbar,24.14,74.05,302.15,3.1,75,66,1562821418
